[
  {
    "name": "1st Burnley Boys' Brigade",
    "lat": 53.790229,
    "lng": -2.291749,
    "address": "Greenbrook Methodist Church, 4 Greenbrook Rd, Burnley BB12 6NZ",
    "phone": "",
    "website": "",
    "image": "../assets/images/bb/1st-burnley.jpg",
    "description": "Boys’ Brigade company meeting at Greenbrook Methodist Church.",
    "region": "East Lancashire"
  },
  {
    "name": "3rd Burnley Boys' Brigade",
    "lat": 53.786817,
    "lng": -2.232942,
    "address": "St Catherine's Church, Todmorden Rd, Burnley BB10 4AB",
    "phone": "",
    "website": "",
    "image": "../assets/images/bb/3rd-burnley.jpg",
    "description": "Boys’ Brigade company meeting at St Catherine's Church.",
    "region": "East Lancashire"
  },
  {
    "name": "1st Oswaldtwistle Boys' Brigade",
    "lat": 53.744188,
    "lng": -2.394064,
    "address": "Rhyddings Methodist Church, Chapel St, Oswaldtwistle, Accrington BB5 3EP",
    "phone": "",
    "website": "",
    "image": "../assets/images/bb/1st-oswaldtwistle.jpg",
    "description": "Boys’ Brigade company meeting at Rhyddings Methodist Church.",
    "region": "East Lancashire"
  },
  {
    "name": "1st Morecambe & Heysham Boys' Brigade",
    "lat": 54.062636,
    "lng": -2.886364,
    "address": "Stanley Road Baptist Church, Stanley Rd, Heysham, Morecambe LA3 1UP",
    "phone": "",
    "website": "",
    "image": "../assets/images/bb/1st-morecambe-heysham.jpg",
    "description": "Boys’ Brigade company meeting at Stanley Road Baptist Church.",
    "region": "Lancastria"
  },
  {
    "name": "10th Liverpool Boys' Brigade",
    "lat": 53.429302,
    "lng": -2.96324,
    "address": "Christ Church and Holy Trinity, Walton Breck Rd / 157 Hartnup St, Liverpool L5 1UW",
    "phone": "",
    "website": "",
    "image": "../assets/images/bb/10th-liverpool.jpg",
    "description": "Boys’ Brigade company based at Christ Church, Anfield.",
    "region": "Liverpool"
  },
  {
    "name": "16th Liverpool Boys' Brigade",
    "lat": 53.42283,
    "lng": -2.928001,
    "address": "Bethel Church (Tuebrook), Green Lane, Liverpool L13 7EA",
    "phone": "",
    "website": "",
    "image": "../assets/images/bb/16th-liverpool.jpg",
    "description": "Boys’ Brigade company meeting at Bethel Church, Tuebrook.",
    "region": "Liverpool"
  },
  {
    "name": "26th Liverpool Boys' Brigade",
    "lat": 53.374341,
    "lng": -2.867452,
    "address": "St James' Church, Church Road South, Woolton, Liverpool L25 7RJ",
    "phone": "",
    "website": "",
    "image": "../assets/images/bb/26th-liverpool.jpg",
    "description": "Boys’ Brigade company meeting at St James’ Church, Woolton.",
    "region": "Liverpool"
  },
  {
    "name": "35th Liverpool Boys' Brigade",
    "lat": 53.394485,
    "lng": -2.883397,
    "address": "All Saints’ Church and Hall, 102 Childwall Abbey Road, Liverpool L16 0JW",
    "phone": "",
    "website": "",
    "image": "../assets/images/bb/35th-liverpool.jpg",
    "description": "Boys’ Brigade company meeting at All Saints’ Church, Childwall.",
    "region": "Liverpool"
  },
  {
    "name": "46th Liverpool Boys' Brigade",
    "lat": 53.375031,
    "lng": -2.948111,
    "address": "St Michael in the Hamlet with St Andrews, St Michael's Church Road, Liverpool L17 7BD",
    "phone": "",
    "website": "",
    "image": "../assets/images/bb/46th-liverpool.jpg",
    "description": "Boys’ Brigade company meeting at St Michael in the Hamlet.",
    "region": "Liverpool"
  },
  {
    "name": "53rd Liverpool Boys' Brigade",
    "lat": 53.448158,
    "lng": -2.910785,
    "address": "Church of the Good Shepherd, Lower House Lane, Liverpool L11 2SF",
    "phone": "",
    "website": "",
    "image": "../assets/images/bb/53rd-liverpool.jpg",
    "description": "Boys’ Brigade company meeting at the Church of the Good Shepherd.",
    "region": "Liverpool"
  },
  {
    "name": "56th Liverpool Boys' Brigade",
    "lat": 53.40773,
    "lng": -2.874179,
    "address": "Court Hey Methodist Church, 139 Roby Rd, Liverpool L14 3NU",
    "phone": "",
    "website": "",
    "image": "../assets/images/bb/56th-liverpool.jpg",
    "description": "Boys’ Brigade company meeting at Court Hey Methodist Church.",
    "region": "Liverpool"
  },
  {
    "name": "7th Liverpool Boys' Brigade",
    "lat": 53.431149,
    "lng": -2.913507,
    "address": "West Derby Methodist Church, Crosby Green, Liverpool L12 7JZ",
    "phone": "",
    "website": "",
    "image": "../assets/images/bb/7th-liverpool.jpg",
    "description": "Boys’ Brigade company meeting at West Derby Methodist Church.",
    "region": "Liverpool"
  },
  {
    "name": "1st Rainford Boys' Brigade",
    "lat": 53.499046,
    "lng": -2.786435,
    "address": "All Saints Church, Church Rd, Rainford, St Helens WA11 8HJ",
    "phone": "",
    "website": "",
    "image": "../assets/images/bb/1st-rainford.jpg",
    "description": "Boys’ Brigade company meeting at All Saints Church, Rainford.",
    "region": "Liverpool"
  },
  {
    "name": "1st Roby Boys' Brigade",
    "lat": 53.412641,
    "lng": -2.855444,
    "address": "St Bartholomew's Church, Church Rd, Roby, Liverpool L36 9TL",
    "phone": "",
    "website": "",
    "image": "../assets/images/bb/1st-roby.jpg",
    "description": "Boys’ Brigade company meeting at St Bartholomew's Church, Roby.",
    "region": "Liverpool"
  },
  {
    "name": "1st North Wales Boys' Brigade",
    "lat": 53.109566,
    "lng": -3.03618,
    "address": "Brigade Hall, Castle St, Caergwrle, Wrexham LL12 9DS",
    "phone": "",
    "website": "",
    "image": "../assets/images/bb/1st-north-wales.jpg",
    "description": "Boys’ Brigade company meeting at dedicated Brigade Hall in North Wales.",
    "region": "North Wales"
  }
,
{
  "name": "2nd Altrincham Boys' Brigade",
  "lat": 53.387982,
  "lng": -2.347233,
  "address": "Altrincham Methodist Church, Barrington Rd, Altrincham WA14 1HF",
  "phone": "",
  "website": "",
  "image": "../assets/images/bb/2nd-altrincham.jpg",
  "description": "Boys’ Brigade company meeting at Altrincham Methodist Church.",
  "region": "Manchester"
},
{
  "name": "14th Bolton Boys' Brigade",
  "lat": 53.596241,
  "lng": -2.417902,
  "address": "Trinity Methodist Church, 18 Tonge Old Rd, Tonge Fold, Bolton BL2 6BH",
  "phone": "",
  "website": "",
  "image": "../assets/images/bb/14th-bolton.jpg",
  "description": "Boys’ Brigade company meeting at Trinity Methodist Church.",
  "region": "Manchester"
},
{
  "name": "1st Chapel-en-le-Frith Boys' Brigade",
  "lat": 53.322533,
  "lng": -1.914873,
  "address": "Chapel-en-le-Frith Methodist Church, 86 Market St, Chapel-en-le-Frith SK23 0HZ",
  "phone": "",
  "website": "",
  "image": "../assets/images/bb/1st-chapel-en-le-frith.jpg",
  "description": "Boys’ Brigade company meeting at Chapel-en-le-Frith Methodist Church.",
  "region": "Manchester"
},
{
  "name": "1st Denton Boys' Brigade",
  "lat": 53.455205,
  "lng": -2.115194,
  "address": "Hope URC Church, Stockport Rd, Denton M34 6AB",
  "phone": "",
  "website": "",
  "image": "../assets/images/bb/1st-denton.jpg",
  "description": "Boys’ Brigade company meeting at Hope URC Church, Denton.",
  "region": "Manchester"
},
{
  "name": "2nd Denton Boys' Brigade",
  "lat": 53.454074,
  "lng": -2.110982,
  "address": "Denton Methodist Church, Hyde Rd, Denton M34 3AQ",
  "phone": "",
  "website": "",
  "image": "../assets/images/bb/2nd-denton.jpg",
  "description": "Boys’ Brigade company meeting at Denton Methodist Church.",
  "region": "Manchester"
},
{
  "name": "50th Manchester Boys' Brigade",
  "lat": 53.392211,
  "lng": -2.264703,
  "address": "Brownley Green Baptist Church, 2 Actonville Ave, Wythenshawe, Manchester M22 9AN",
  "phone": "",
  "website": "",
  "image": "../assets/images/bb/50th-manchester.jpg",
  "description": "Boys’ Brigade company meeting at Brownley Green Baptist Church.",
  "region": "Manchester"
},
{
  "name": "53rd Manchester Boys' Brigade",
  "lat": 53.487876,
  "lng": -2.297764,
  "address": "Height Methodist Community Church, King St, Salford M6 7GY",
  "phone": "",
  "website": "",
  "image": "../assets/images/bb/53rd-manchester.jpg",
  "description": "Boys’ Brigade company meeting at Height Methodist Community Church.",
  "region": "Manchester"
},
{
  "name": "55th Manchester Boys' Brigade",
  "lat": 53.485084,
  "lng": -2.334735,
  "address": "Eccles Congregational Church, Wellington Rd, Eccles M30 9AL",
  "phone": "",
  "website": "",
  "image": "../assets/images/bb/55th-manchester.jpg",
  "description": "Boys’ Brigade company meeting at Eccles Congregational Church.",
  "region": "Manchester"
},
{
  "name": "59th Manchester Boys' Brigade",
  "lat": 53.443932,
  "lng": -2.221228,
  "address": "Fallowfield Methodist Church, Platt Ln, Manchester M14 7BY",
  "phone": "",
  "website": "",
  "image": "../assets/images/bb/59th-manchester.jpg",
  "description": "Boys’ Brigade company meeting at Fallowfield Methodist Church.",
  "region": "Manchester"
},
{
  "name": "5th Manchester Boys' Brigade",
  "lat": 53.426844,
  "lng": -2.194296,
  "address": "Christ Church URC, 111 Burnage Lane, Burnage, Manchester M19 2WH",
  "phone": "",
  "website": "",
  "image": "../assets/images/bb/5th-manchester.jpg",
  "description": "Boys’ Brigade company meeting at Christ Church URC, Burnage.",
  "region": "Manchester"
},
{
  "name": "3rd Trafford Boys' Brigade",
  "lat": 53.445912,
  "lng": -2.323648,
  "address": "Sevenways Methodist Church, 286 Barton Rd, Stretford M32 9RD",
  "phone": "",
  "website": "",
  "image": "../assets/images/bb/3rd-trafford.jpg",
  "description": "Boys’ Brigade company meeting at Sevenways Methodist Church.",
  "region": "Manchester"
},
{
  "name": "8th Trafford Boys' Brigade",
  "lat": 53.445103,
  "lng": -2.373927,
  "address": "Cornerstone Methodist Church, Hayeswater Rd, Davyhulme M41 7BL",
  "phone": "",
  "website": "",
  "image": "../assets/images/bb/8th-trafford.jpg",
  "description": "Boys’ Brigade company meeting at Cornerstone Methodist Church.",
  "region": "Manchester"
},
{
  "name": "1st Bryn Boys' Brigade",
  "lat": 53.493547,
  "lng": -2.649317,
  "address": "St Peter's, Bryn Rd, Bryn, Ashton-in-Makerfield, Wigan WN4 0AA",
  "phone": "",
  "website": "",
  "image": "../assets/images/bb/1st-bryn.jpg",
  "description": "Boys’ Brigade company meeting at St Peter's Church, Bryn.",
  "region": "Wigan"
},
{
  "name": "12th Wigan Boys' Brigade",
  "lat": 53.536144,
  "lng": -2.573213,
  "address": "St John's Church Hindley Green, Atherton Rd, Hindley Green, Wigan WN2 4SA",
  "phone": "",
  "website": "",
  "image": "../assets/images/bb/12th-wigan.jpg",
  "description": "Boys’ Brigade company meeting at St John's Church, Hindley Green.",
  "region": "Wigan"
},
{
  "name": "14th Wigan Boys' Brigade",
  "lat": 53.523874,
  "lng": -2.662981,
  "address": "St Matthew's Church, Billinge Rd, Highfield, Wigan WN3 6BL",
  "phone": "",
  "website": "",
  "image": "../assets/images/bb/14th-wigan.jpg",
  "description": "Boys’ Brigade company meeting at St Matthew's Church, Highfield.",
  "region": "Wigan"
},
{
  "name": "2nd Wigan Boys' Brigade",
  "lat": 53.537522,
  "lng": -2.631996,
  "address": "St Mark's Church, Victoria St, Newtown, Wigan WN5 9BN",
  "phone": "",
  "website": "",
  "image": "../assets/images/bb/2nd-wigan.jpg",
  "description": "Boys’ Brigade company meeting at St Mark's Church, Wigan.",
  "region": "Wigan"
},
{
  "name": "8th Wigan Boys' Brigade",
  "lat": 53.540984,
  "lng": -2.582211,
  "address": "St Peter's Church, Peter St, Hindley, Wigan WN2 3HB",
  "phone": "",
  "website": "",
  "image": "../assets/images/bb/8th-wigan.jpg",
  "description": "Boys’ Brigade company meeting at St Peter's Church, Hindley.",
  "region": "Wigan"
}
]